[{"address":"7 E 10TH ST New York NY ","latong":{"Latitude":"40.7332540959031","Longitude":"-73.9948230189705"}},{"address":"155 E 22ND ST New York NY ","latong":{"Latitude":"40.6456241405083","Longitude":"-73.9566432425704"}},{"address":"61 FOURTH AVE New York NY ","latong":{"Latitude":"40.7309933179645","Longitude":"-73.9903457868189"}},{"address":"208 W 13TH ST New York NY ","latong":{"Latitude":"40.7381015874774","Longitude":"-74.0009719369804"}},{"address":"123 E 15TH ST New York NY ","latong":{"Latitude":"40.7347374906693","Longitude":"-73.9882404289172"}},{"address":"61 GRAMERCY PARK N New York NY ","latong":{"Latitude":"40.7387150255991","Longitude":"-73.9865734299535"}},{"address":"155 E 22ND ST New York NY ","latong":{"Latitude":"40.6456241405083","Longitude":"-73.9566432425704"}},{"address":"127 E 22ND ST New York NY ","latong":{"Latitude":"40.6457700799023","Longitude":"-73.9566582324694"}},{"address":"602 E 9TH ST New York NY ","latong":{"Latitude":"40.7256865491758","Longitude":"-73.9791544569912"}},{"address":"125 W 14TH ST New York NY ","latong":{"Latitude":"40.737690789482","Longitude":"-73.997394196627"}},{"address":"346 W 20TH ST New York NY ","latong":{"Latitude":"40.7440018974012","Longitude":"-74.0014509597722"}},{"address":"125 W 14TH ST New York NY ","latong":{"Latitude":"40.737690789482","Longitude":"-73.997394196627"}},{"address":"414 E 14TH ST New York NY ","latong":{"Latitude":"40.6395417336981","Longitude":"-73.9651483760178"}},{"address":"119 NINTH AVE New York NY ","latong":{"Latitude":"40.8236360777407","Longitude":"-73.809197225071"}},{"address":"202 W 24 ST New York NY ","latong":{"Latitude":"40.7447064928879","Longitude":"-73.9952593824343"}},{"address":"28 GRAMERCY PARK S New York NY ","latong":{"Latitude":"40.7371581633267","Longitude":"-73.9853137813165"}},{"address":"50 E 7TH ST New York NY ","latong":{"Latitude":"40.6514010527302","Longitude":"-73.9749022931986"}},{"address":"273 BOWERY New York NY ","latong":{"Latitude":"40.7235","Longitude":"-73.9922"}},{"address":"802 BROADWAY New York NY ","latong":{"Latitude":"40.7320478046546","Longitude":"-73.9911904036263"}},{"address":"28 GRAMMERCY PARK S New York NY ","latong":{"Latitude":"40.7371581633267","Longitude":"-73.9853137813165"}},{"address":"209 E 16TH ST New York NY ","latong":{"Latitude":"40.7346489697825","Longitude":"-73.9860544344337"}},{"address":"44 2ND AVE New York NY ","latong":{"Latitude":"40.7251584813201","Longitude":"-73.9900663060002"}},{"address":"229 W 14TH ST New York NY ","latong":{"Latitude":"40.7389806770461","Longitude":"-74.0004662035248"}},{"address":"229 W 14TH ST New York NY ","latong":{"Latitude":"40.7389806770461","Longitude":"-74.0004662035248"}},{"address":"208 W 13TH ST New York NY ","latong":{"Latitude":"40.7381015874774","Longitude":"-74.0009719369804"}},{"address":"28 GRAMERCY PARK S New York NY ","latong":{"Latitude":"40.7371581633267","Longitude":"-73.9853137813165"}},{"address":"208 W 13TH ST New York NY ","latong":{"Latitude":"40.7381015874774","Longitude":"-74.0009719369804"}},{"address":"307 W 26TH ST New York NY ","latong":{"Latitude":"40.7473708388913","Longitude":"-73.9972612945271"}},{"address":"343 W 25TH ST New York NY ","latong":{"Latitude":"40.7471694175559","Longitude":"-73.9987316903289"}},{"address":"80 SAINT MARKS PL New York NY ","latong":{"Latitude":"40.6467134616094","Longitude":"-74.0845369091234"}},{"address":"208 W 13TH ST New York NY ","latong":{"Latitude":"40.7381015874774","Longitude":"-74.0009719369804"}},{"address":"51 E 25TH ST New York NY ","latong":{"Latitude":"40.7418829781426","Longitude":"-73.9861912406155"}},{"address":"155 E 22ND ST New York NY ","latong":{"Latitude":"40.7385487033475","Longitude":"-73.9843107652274"}},{"address":"7 E 10TH ST New York NY ","latong":{"Latitude":"40.7332540959031","Longitude":"-73.9948230189705"}},{"address":"315 W 22ND ST New York NY ","latong":{"Latitude":"40.7448881630939","Longitude":"-73.9993530097064"}},{"address":"15 RUTHERFORD PL New York NY ","latong":{"Latitude":"40.7337916388529","Longitude":"-73.9850994733319"}},{"address":"25 E 15TH CONFERENCE New York NY ","latong":{"Latitude":"40.7365683507613","Longitude":"-73.9925963133779"}},{"address":"175 9TH AVE New York NY ","latong":{"Latitude":"40.823374824522","Longitude":"-73.8091397830108"}},{"address":"19 UNION SQ W New York NY ","latong":{"Latitude":"40.7360946967377","Longitude":"-73.9912290994142"}},{"address":"155 E 22ND ST New York NY ","latong":{"Latitude":"40.6456241405083","Longitude":"-73.9566432425704"}},{"address":"423 E 23RD ST New York NY ","latong":{"Latitude":"40.7365750204561","Longitude":"-73.9777724933453"}},{"address":"209 E 16TH ST New York NY ","latong":{"Latitude":"40.7346489697825","Longitude":"-73.9860544344337"}},{"address":"411 E 12TH ST New York NY ","latong":{"Latitude":"40.6395158943622","Longitude":"-73.9668529481007"}},{"address":"209 E 16TH ST New York NY ","latong":{"Latitude":"40.7346489697825","Longitude":"-73.9860544344337"}},{"address":"239 E 21ST ST New York NY ","latong":{"Latitude":"40.7372618768885","Longitude":"-73.9831755420921"}},{"address":"12 W 12TH ST New York NY ","latong":{"Latitude":"40.7347362617638","Longitude":"-73.9949685934818"}},{"address":"44 2ND AVE New York NY ","latong":{"Latitude":"40.5913360380677","Longitude":"-73.9818486824745"}},{"address":"208 W 13TH ST New York NY ","latong":{"Latitude":"40.7381015874774","Longitude":"-74.0009719369804"}},{"address":"12 W 11TH ST New York NY ","latong":{"Latitude":"40.7340978938148","Longitude":"-73.9954339239964"}},{"address":"116 W 11TH ST New York NY ","latong":{"Latitude":"40.7355527136856","Longitude":"-73.9988979600227"}},{"address":"80 5TH AVE New York NY ","latong":{"Latitude":"40.7937491361599","Longitude":"-73.8258388595235"}},{"address":"116 W 11TH ST New York NY ","latong":{"Latitude":"40.7355527136856","Longitude":"-73.9988979600227"}},{"address":"155 E 22ND ST New York NY ","latong":{"Latitude":"40.7385487033475","Longitude":"-73.9843107652274"}},{"address":"319 EASTR 24TH ST New York NY ","latong":{"Latitude":"40.6639307188879","Longitude":"-73.9382749875207"}},{"address":"10 E UNION SQ New York NY ","latong":{"Latitude":"40.7348","Longitude":"-73.9898"}},{"address":"206208 E 11TH ST New York NY ","latong":{"Latitude":"40.6639307188879","Longitude":"-73.9382749875207"}},{"address":"123 E 15TH ST New York NY ","latong":{"Latitude":"40.6470987877411","Longitude":"-73.9654484272783"}},{"address":"411 E 12TH ST New York NY ","latong":{"Latitude":"40.7300048121145","Longitude":"-73.983272777792"}},{"address":"125 W 14TH ST New York NY ","latong":{"Latitude":"40.737690789482","Longitude":"-73.997394196627"}},{"address":"208 W 13TH ST New York NY ","latong":{"Latitude":"40.7381015874774","Longitude":"-74.0009719369804"}},{"address":"10 UNION SQ E New York NY ","latong":{"Latitude":"40.7348","Longitude":"-73.9898"}},{"address":"155 W 22ND ST New York NY ","latong":{"Latitude":"40.742975462255","Longitude":"-73.9948187519044"}},{"address":"208 W 13TH ST New York NY ","latong":{"Latitude":"40.7381015874774","Longitude":"-74.0009719369804"}},{"address":"12 W 12TH ST New York NY ","latong":{"Latitude":"40.7347362617638","Longitude":"-73.9949685934818"}},{"address":"20 WASHINGTON SQ N New York NY ","latong":{"Latitude":"40.7319","Longitude":"-73.9978"}},{"address":"344 E 14TH ST New York NY ","latong":{"Latitude":"40.6411745150501","Longitude":"-73.9654592524133"}},{"address":"155 W 22ND ST New York NY ","latong":{"Latitude":"40.742975462255","Longitude":"-73.9948187519044"}},{"address":"208 W 13TH ST New York NY ","latong":{"Latitude":"40.7381015874774","Longitude":"-74.0009719369804"}},{"address":"602 E 9TH ST New York NY ","latong":{"Latitude":"40.7256865491758","Longitude":"-73.9791544569912"}},{"address":"208 W 13TH ST New York NY ","latong":{"Latitude":"40.7381015874774","Longitude":"-74.0009719369804"}},{"address":"208 W 13TH ST New York NY ","latong":{"Latitude":"40.7381015874774","Longitude":"-74.0009719369804"}},{"address":"19 UNION SQ W New York NY ","latong":{"Latitude":"40.7361","Longitude":"-73.9912"}},{"address":"173 E 3RD ST New York NY ","latong":{"Latitude":"40.6478013436514","Longitude":"-73.9781507315578"}},{"address":"50 E 7TH ST New York NY ","latong":{"Latitude":"40.6514010527302","Longitude":"-73.9749022931986"}}]